{
  "type": "FeatureCollection",
  "features": [
    {
      "type": "Feature",
      "properties": {
        "name": "SARG Launch Site",
        "organization": "SARG",
        "URL": "http://sargrocket.org/"
      },
      "geometry": {
        "type": "Point",
        "coordinates": [
          -121.390709,
          38.819561
        ]
      }
    },
    {
      "type": "Feature",
      "properties": {
        "name": "Snow Ranch",
        "organization": "LUNAR",
        "URL": "http://lunar.org/"
      },
      "geometry": {
        "type": "Point",
        "coordinates": [
          -120.794935,
          37.949274
        ]
      }
    },
    {
      "type": "Feature",
      "properties": {
        "name": "Moffett Field/NASA Ames",
        "organization": "LUNAR",
        "URL": "http://lunar.org/"
      },
      "geometry": {
        "type": "Point",
        "coordinates": [
          -122.051283,
          37.408675
        ]
      }
    },
    {
      "type": "Feature",
      "properties": {
        "name": "Davis Road",
        "organization": "TCC",
        "URL": "http://www.tccrockets.com/"
      },
      "geometry": {
        "type": "Point",
        "coordinates": [
          -120.129539,
          36.473161
        ]
      }
    },
    {
      "type": "Feature",
      "properties": {
        "name": "Del Norte",
        "organization": "TCC",
        "URL": "http://www.tccrockets.com/"
      },
      "geometry": {
        "type": "Point",
        "coordinates": [
          -120.076111,
          36.520278
        ]
      }
    },
    {
      "type": "Feature",
      "properties": {
        "name": "Artesia",
        "organization": "Rockonn",
        "URL": "http://www.rockonn.org/"
      },
      "geometry": {
        "type": "Point",
        "coordinates": [
          -119.334785,
          38.912228
        ]
      }
    }
  ]
}
